[{"name":"Eat Is Wok","CP":"28012","location":{"type":"Point","coordinates":[-3.7003047942,40.4155528765]},"place":"asian"},{"name":"Wok Sun","CP":"28013","location":{"type":"Point","coordinates":[-3.703382407,40.4178177294]},"place":"asian"},{"name":"Chuka Ramen Bar","CP":"28014","location":{"type":"Point","coordinates":[-3.6995334102,40.4157497238]},"place":"asian"},{"name":"Gyoza Go!","CP":"28013","location":{"type":"Point","coordinates":[-3.7086119503,40.4161794409]},"place":"asian"},{"name":"Viet Nam Restaurante","CP":"28013","location":{"type":"Point","coordinates":[-3.7011944855,40.414070909]},"place":"asian"},{"name":"Ramen Kagura","CP":"28013","location":{"type":"Point","coordinates":[-3.7086242882,40.416849981]},"place":"asian"},{"name":"MACAO","CP":"28012","location":{"type":"Point","coordinates":[-3.700393,40.415429]},"place":"asian"},{"name":"Wok To Walk","CP":"28013","location":{"type":"Point","coordinates":[-3.7049480527,40.4165529913]},"place":"asian"},{"name":"Sublime-Tokyo","CP":"28013","location":{"type":"Point","coordinates":[-3.7082145556,40.4199642532]},"place":"asian"},{"name":"Donzoko","CP":"28014","location":{"type":"Point","coordinates":[-3.6995386538,40.4161349495]},"place":"asian"},{"name":"Bamb\u00fabox","CP":"28004","location":{"type":"Point","coordinates":[-3.6993528518,40.4205065727]},"place":"asian"},{"name":"Surya","CP":"28004","location":{"type":"Point","coordinates":[-3.7056137856,40.4210624772]},"place":"asian"},{"name":"Yakitoro","CP":"28001","location":{"type":"Point","coordinates":[-3.6972018377,40.4196477014]},"place":"asian"},{"name":"Vietnam Express Restaurante","CP":"28012","location":{"type":"Point","coordinates":[-3.7039463,40.4130309]},"place":"asian"},{"name":"Kirei Las Cortes by Kabuki","CP":"28014","location":{"type":"Point","coordinates":[-3.696714,40.415376]},"place":"asian"},{"name":"Bal\u00f3n Tokio","CP":"28014","location":{"type":"Point","coordinates":[-3.699462,40.413993]},"place":"asian"},{"name":"Yoka Loka","CP":"28012","location":{"type":"Point","coordinates":[-3.6986928116,40.411614585]},"place":"asian"},{"name":"Indian Aroma","CP":"28014","location":{"type":"Point","coordinates":[-3.6989345554,40.4159302875]},"place":"asian"},{"name":"kfn KungFu Noodle","CP":"28004","location":{"type":"Point","coordinates":[-3.6996373142,40.4214820633]},"place":"asian"},{"name":"Janatomo","CP":"28004","location":{"type":"Point","coordinates":[-3.6991027738,40.4200367095]},"place":"asian"},{"name":"Mashita","CP":"28013","location":{"type":"Point","coordinates":[-3.7095981173,40.4205228579]},"place":"asian"},{"name":"Izakaya Han","CP":"28004","location":{"type":"Point","coordinates":[-3.698475072,40.4218188867]},"place":"asian"},{"name":"Vietnam Mekong Restaurante","CP":"28013","location":{"type":"Point","coordinates":[-3.7090672263,40.421339709]},"place":"asian"},{"name":"Curry's","CP":"28004","location":{"type":"Point","coordinates":[-3.7061510931,40.4213675946]},"place":"asian"},{"name":"Agra Palace","CP":"28013","location":{"type":"Point","coordinates":[-3.710763701,40.4176308565]},"place":"asian"},{"name":"Chic Sushi","CP":"28013","location":{"type":"Point","coordinates":[-3.7005835,40.419426]},"place":"asian"},{"name":"Maru Sushi Bar","CP":"28004","location":{"type":"Point","coordinates":[-3.6977885688,40.4197384129]},"place":"asian"},{"name":"Kung Fu","CP":null,"location":{"type":"Point","coordinates":[-3.7057173592,40.4222166465]},"place":"asian"},{"name":"The Asia Gallery","CP":"28014","location":{"type":"Point","coordinates":[-3.6951540962,40.4150084575]},"place":"asian"},{"name":"Umiko","CP":null,"location":{"type":"Point","coordinates":[-3.6973123469,40.4175938862]},"place":"asian"},{"name":"Hattori Hanz\u014d","CP":"28004","location":{"type":"Point","coordinates":[-3.703874683,40.4208489352]},"place":"asian"},{"name":"Wasabi & Roll","CP":"28013","location":{"type":"Point","coordinates":[-3.7095988203,40.4222665103]},"place":"asian"},{"name":"Wok to Walk","CP":"28004","location":{"type":"Point","coordinates":[-3.7008220404,40.4206092726]},"place":"asian"},{"name":"Sarang Bang","CP":null,"location":{"type":"Point","coordinates":[-3.7104573,40.41722]},"place":"asian"},{"name":"Ni Hao","CP":"28004","location":{"type":"Point","coordinates":[-3.7058524291,40.4215288405]},"place":"asian"},{"name":"Miyama","CP":"28013","location":{"type":"Point","coordinates":[-3.7097515208,40.4223528526]},"place":"asian"},{"name":"Restaurante Taj","CP":"28014","location":{"type":"Point","coordinates":[-3.6955875033,40.4172937442]},"place":"asian"},{"name":"Moharaj","CP":"28012","location":{"type":"Point","coordinates":[-3.700549995,40.411087118]},"place":"asian"},{"name":"Shapla","CP":"28012","location":{"type":"Point","coordinates":[-3.702342943,40.4099127107]},"place":"asian"},{"name":"Restaurante Vietnam24","CP":"28004","location":{"type":"Point","coordinates":[-3.698428,40.421341]},"place":"asian"},{"name":"Baisakhi Indian Restaurant","CP":"28012","location":{"type":"Point","coordinates":[-3.7023070333,40.4098442571]},"place":"asian"},{"name":"Soy Kitchen","CP":null,"location":{"type":"Point","coordinates":[-3.7090351051,40.4235361379]},"place":"asian"},{"name":"Sumo Fusi\u00f3n","CP":"28004","location":{"type":"Point","coordinates":[-3.6981858863,40.4193033833]},"place":"asian"},{"name":"Krachai","CP":"28004","location":{"type":"Point","coordinates":[-3.6962992874,40.4253416412]},"place":"asian"},{"name":"Tse Yang Dim Sum Club Gran Via","CP":null,"location":{"type":"Point","coordinates":[-3.7054965164,40.419696516]},"place":"asian"},{"name":"DimSumMarket","CP":"28012","location":{"type":"Point","coordinates":[-3.7002709508,40.4152461884]},"place":"asian"},{"name":"Chilling Caf\u00e9","CP":null,"location":{"type":"Point","coordinates":[-3.7061080261,40.4220140055]},"place":"asian"},{"name":"Taj Mahal","CP":"28004","location":{"type":"Point","coordinates":[-3.6963255127,40.4242295054]},"place":"asian"},{"name":"Ninja ramen","CP":"28004","location":{"type":"Point","coordinates":[-3.7009166459,40.4264190319]},"place":"asian"},{"name":"Lamian by Soy Kitchen","CP":null,"location":{"type":"Point","coordinates":[-3.708959,40.423559]},"place":"asian"},{"name":"Wok Fresh","CP":"28004","location":{"type":"Point","coordinates":[-3.699388,40.422461]},"place":"asian"},{"name":"Doki Doki","CP":"28001","location":{"type":"Point","coordinates":[-3.6897974462,40.421168589]},"place":"asian"},{"name":"Nunca cocinas sin Hambre, Gastronom\u00eda Oriental","CP":"28015","location":{"type":"Point","coordinates":[-3.708707,40.42567]},"place":"asian"},{"name":"Konnichiwa","CP":"28004","location":{"type":"Point","coordinates":[-3.7018573608,40.4278030848]},"place":"asian"},{"name":"Restaurante Asi\u00e1tico","CP":"28004","location":{"type":"Point","coordinates":[-3.705687,40.422121]},"place":"asian"},{"name":"Tian Tian Xiao Chi","CP":"28013","location":{"type":"Point","coordinates":[-3.7091462674,40.4214710985]},"place":"asian"},{"name":"Shuwa Shuwa","CP":"28004","location":{"type":"Point","coordinates":[-3.693949,40.42347]},"place":"asian"},{"name":"El Buda Feliz","CP":null,"location":{"type":"Point","coordinates":[-3.7053734371,40.4211863048]},"place":"asian"},{"name":"HanSo Caf\u00e9","CP":"28004","location":{"type":"Point","coordinates":[-3.7055842488,40.4239123225]},"place":"asian"},{"name":"Sr. Ito","CP":null,"location":{"type":"Point","coordinates":[-3.6974641026,40.4241941825]},"place":"asian"},{"name":"Anarkoli Restaurante","CP":"28012","location":{"type":"Point","coordinates":[-3.7021898018,40.409638016]},"place":"asian"},{"name":"Pad Thai","CP":"28014","location":{"type":"Point","coordinates":[-3.6926142964,40.4104710533]},"place":"asian"},{"name":"Miss Sushi","CP":"28004","location":{"type":"Point","coordinates":[-3.697417601,40.4255076221]},"place":"asian"},{"name":"tuk tuk","CP":"28004","location":{"type":"Point","coordinates":[-3.6956102724,40.4225500863]},"place":"asian"},{"name":"El Buda Feliz","CP":"28004","location":{"type":"Point","coordinates":[-3.705689,40.421225]},"place":"asian"},{"name":"Rong Hua","CP":"28015","location":{"type":"Point","coordinates":[-3.7077509414,40.4219714231]},"place":"asian"},{"name":"Sushi Store Express","CP":"28013","location":{"type":"Point","coordinates":[-3.6980874925,40.4193123146]},"place":"asian"},{"name":"Raja-Mahal","CP":"28012","location":{"type":"Point","coordinates":[-3.7003673778,40.411204767]},"place":"asian"},{"name":"Phuket Thai Restaurante Tailandes","CP":"28012","location":{"type":"Point","coordinates":[-3.6946013192,40.4102180117]},"place":"asian"},{"name":"Seoul","CP":"28005","location":{"type":"Point","coordinates":[-3.7180896568,40.411058921]},"place":"asian"},{"name":"Jin Jin","CP":"28015","location":{"type":"Point","coordinates":[-3.7098586613,40.4248417623]},"place":"asian"},{"name":"Al-Nassim","CP":null,"location":{"type":"Point","coordinates":[-3.7092024827,40.4212943237]},"place":"asian"},{"name":"Thai Garden 2112","CP":"28001","location":{"type":"Point","coordinates":[-3.6908738315,40.4221405159]},"place":"asian"},{"name":"Hong Kong 70","CP":"28005","location":{"type":"Point","coordinates":[-3.707557,40.413843]},"place":"asian"},{"name":"Restaurante chino Fan Hua","CP":null,"location":{"type":"Point","coordinates":[-3.7110842563,40.4078782859]},"place":"asian"},{"name":"Bombay Palace","CP":"28012","location":{"type":"Point","coordinates":[-3.7007212609,40.4106957873]},"place":"asian"},{"name":"Restaurante Chino El Tesoro","CP":"28004","location":{"type":"Point","coordinates":[-3.7002483693,40.4215605806]},"place":"asian"},{"name":"Washoku Sushi","CP":"28012","location":{"type":"Point","coordinates":[-3.7033925316,40.4075037631]},"place":"asian"},{"name":"UDON","CP":"28004","location":{"type":"Point","coordinates":[-3.6994906123,40.4201513928]},"place":"asian"},{"name":"Nigiri","CP":"28008","location":{"type":"Point","coordinates":[-3.7120307166,40.4245381689]},"place":"asian"},{"name":"Sake Dining Himawari","CP":"28004","location":{"type":"Point","coordinates":[-3.6932518381,40.4227253798]},"place":"asian"},{"name":"Taste of India","CP":null,"location":{"type":"Point","coordinates":[-3.701344,40.415401]},"place":"asian"},{"name":"El Rey de Tallarines","CP":"28015","location":{"type":"Point","coordinates":[-3.7094618928,40.4246323229]},"place":"asian"},{"name":"Kuraya","CP":"28013","location":{"type":"Point","coordinates":[-3.7089206678,40.4165781248]},"place":"asian"},{"name":"Mughul","CP":"28015","location":{"type":"Point","coordinates":[-3.7102673422,40.4251758684]},"place":"asian"},{"name":"Mister Lee","CP":null,"location":{"type":"Point","coordinates":[-3.7053455956,40.4197010711]},"place":"asian"},{"name":"Okasan","CP":"28013","location":{"type":"Point","coordinates":[-3.7053404,40.419765]},"place":"asian"},{"name":"Restaurante De La India Moharaj","CP":null,"location":{"type":"Point","coordinates":[-3.6998447275,40.4092851002]},"place":"asian"},{"name":"Bombay Palace","CP":"28004","location":{"type":"Point","coordinates":[-3.6982807424,40.420744159]},"place":"asian"},{"name":"Wawa Wok","CP":"28012","location":{"type":"Point","coordinates":[-3.7039351,40.413227]},"place":"asian"},{"name":"Misska","CP":"28013","location":{"type":"Point","coordinates":[-3.706606,40.419747]},"place":"asian"},{"name":"Restaurante Chino Casa Jiang","CP":"28004","location":{"type":"Point","coordinates":[-3.7000634311,40.421701544]},"place":"asian"},{"name":"Ichikoro Ramen","CP":"28014","location":{"type":"Point","coordinates":[-3.699549141,40.4156810219]},"place":"asian"},{"name":"Yugo the Bunker","CP":"28014","location":{"type":"Point","coordinates":[-3.694598,40.410614]},"place":"asian"},{"name":"Ginza","CP":"28014","location":{"type":"Point","coordinates":[-3.6959859447,40.415967333]},"place":"asian"},{"name":"Han Gang","CP":"28012","location":{"type":"Point","coordinates":[-3.6961666897,40.4108558709]},"place":"asian"},{"name":"Momo Bao","CP":"28004","location":{"type":"Point","coordinates":[-3.705576,40.421102]},"place":"asian"},{"name":"Makitake","CP":null,"location":{"type":"Point","coordinates":[-3.6986661777,40.4144413069]},"place":"asian"},{"name":"Nigiri","CP":null,"location":{"type":"Point","coordinates":[-3.7015283945,40.4267022787]},"place":"asian"},{"name":"Go Sushing","CP":"28004","location":{"type":"Point","coordinates":[-3.704728,40.420939]},"place":"asian"}]