[{"name":"Bowling La Ermita","CP":"28011","location":{"type":"Point","coordinates":[-3.7255734941,40.4070134583]},"place":"bowling"},{"name":"Bowling Chamart\u00edn","CP":"28036","location":{"type":"Point","coordinates":[-3.6826530174,40.4712302294]},"place":"bowling"},{"name":"Ilusiona Bowling","CP":null,"location":{"type":"Point","coordinates":[-3.7389443301,40.3630016152]},"place":"bowling"},{"name":"Diverbowling","CP":"28043","location":{"type":"Point","coordinates":[-3.6359723744,40.4629772072]},"place":"bowling"},{"name":"Bowling Sur","CP":"28916","location":{"type":"Point","coordinates":[-3.7334711332,40.3385220338]},"place":"bowling"},{"name":"Bowling Park Plenilunio","CP":"28022","location":{"type":"Point","coordinates":[-3.5871028481,40.4476730505]},"place":"bowling"},{"name":"Planet Bowling Madrid","CP":"28922","location":{"type":"Point","coordinates":[-3.8326403213,40.358477463]},"place":"bowling"},{"name":"Planet Bowling TresAguas","CP":"28922","location":{"type":"Point","coordinates":[-3.8319540024,40.3584976949]},"place":"bowling"},{"name":"AMF Bowling","CP":null,"location":{"type":"Point","coordinates":[-3.6374404364,40.5314510756]},"place":"bowling"},{"name":"Ilusiona Bowling","CP":null,"location":{"type":"Point","coordinates":[-3.8748153868,40.4548074726]},"place":"bowling"},{"name":"Autopista de Circunvalaci\u00f3n M-40","CP":"28000","location":{"type":"Point","coordinates":[-3.7927396483,40.4656801033]},"place":"bowling"},{"name":"Bowling Ozone H2Ocio","CP":"28521","location":{"type":"Point","coordinates":[-3.5240621856,40.3359468863]},"place":"bowling"},{"name":"Bolera Ozone","CP":"28702","location":{"type":"Point","coordinates":[-3.6104113661,40.5662313797]},"place":"bowling"},{"name":"Tres Cantos Bowling","CP":"28760","location":{"type":"Point","coordinates":[-3.708856,40.599542]},"place":"bowling"},{"name":"Ilusiona Bowling (C.C Xanad\u00fa)","CP":"28939","location":{"type":"Point","coordinates":[-3.9246868173,40.2998737428]},"place":"bowling"},{"name":"Bowling Segovia","CP":null,"location":{"type":"Point","coordinates":[-4.0965693148,40.9306293158]},"place":"bowling"}]