[{"name":"TAKOS","CP":"28013","location":{"type":"Point","coordinates":[-3.703748,40.418938]},"place":"mexican"},{"name":"Taquer\u00eda Mi Ciudad","CP":"28013","location":{"type":"Point","coordinates":[-3.708367,40.416977]},"place":"mexican"},{"name":"Mi Ciudad I","CP":"28013","location":{"type":"Point","coordinates":[-3.7086248967,40.4174781276]},"place":"mexican"},{"name":"Entre Suspiro y Suspiro","CP":"28013","location":{"type":"Point","coordinates":[-3.7091380678,40.4184704685]},"place":"mexican"},{"name":"Central Mexicana","CP":null,"location":{"type":"Point","coordinates":[-3.7055115081,40.419703188]},"place":"mexican"},{"name":"Casa Jaguar","CP":"28013","location":{"type":"Point","coordinates":[-3.7085157,40.4190188]},"place":"mexican"},{"name":"La Mordida","CP":"28013","location":{"type":"Point","coordinates":[-3.7087157615,40.4169977722]},"place":"mexican"},{"name":"Takos Al Pastor","CP":"28012","location":{"type":"Point","coordinates":[-3.7067462773,40.4147946853]},"place":"mexican"},{"name":"DF Bar Torteria Mexicana","CP":"28014","location":{"type":"Point","coordinates":[-3.6993506824,40.4128360141]},"place":"mexican"},{"name":"Taco Bell","CP":"28013","location":{"type":"Point","coordinates":[-3.7019389676,40.4194073762]},"place":"mexican"},{"name":"La Chamana","CP":"28013","location":{"type":"Point","coordinates":[-3.7069318,40.419132]},"place":"mexican"},{"name":"Sahuaro","CP":"28005","location":{"type":"Point","coordinates":[-3.7072020195,40.4110863935]},"place":"mexican"},{"name":"El Chaparrito","CP":"28014","location":{"type":"Point","coordinates":[-3.6989243921,40.4155262032]},"place":"mexican"},{"name":"Tres por Ocho Sabor a M\u00e9xico","CP":"28001","location":{"type":"Point","coordinates":[-3.7078084817,40.4161272124]},"place":"mexican"},{"name":"Cutzamala","CP":null,"location":{"type":"Point","coordinates":[-3.6987083114,40.4116100021]},"place":"mexican"},{"name":"La Malinche","CP":"28013","location":{"type":"Point","coordinates":[-3.7102750868,40.4208449556]},"place":"mexican"},{"name":"Tepic","CP":null,"location":{"type":"Point","coordinates":[-3.6991230677,40.4219055391]},"place":"mexican"},{"name":"Tierra Burrito Bar","CP":"28012","location":{"type":"Point","coordinates":[-3.7023095777,40.4155024217]},"place":"mexican"},{"name":"El Olibo","CP":null,"location":{"type":"Point","coordinates":[-3.7026773264,40.4157815181]},"place":"mexican"},{"name":"El Rinc\u00f3n De Los Cuates","CP":null,"location":{"type":"Point","coordinates":[-3.6985912905,40.4217191161]},"place":"mexican"},{"name":"Taco Bell","CP":"28013","location":{"type":"Point","coordinates":[-3.7088212071,40.4221925684]},"place":"mexican"},{"name":"La Venganza de Malinche","CP":"28004","location":{"type":"Point","coordinates":[-3.7013926414,40.4189429792]},"place":"mexican"},{"name":"Local dado de baja o inexistente","CP":"28029","location":{"type":"Point","coordinates":[-3.7008240223,40.4206504822]},"place":"mexican"},{"name":"Taco Bell","CP":null,"location":{"type":"Point","coordinates":[-3.7063056369,40.4197137677]},"place":"mexican"},{"name":"El Chaparrito","CP":"28013","location":{"type":"Point","coordinates":[-3.7101443087,40.4156104209]},"place":"mexican"},{"name":"Taquer\u00eda del Alamillo","CP":"28005","location":{"type":"Point","coordinates":[-3.7125487818,40.413697063]},"place":"mexican"},{"name":"Tiki Taco","CP":"28015","location":{"type":"Point","coordinates":[-3.707706,40.422154]},"place":"mexican"},{"name":"La Gringa","CP":"28015","location":{"type":"Point","coordinates":[-3.7078595231,40.4261784345]},"place":"mexican"},{"name":"Rosa Negra","CP":"28014","location":{"type":"Point","coordinates":[-3.6989584937,40.4137909604]},"place":"mexican"},{"name":"La Taquer\u00eda de Birra","CP":"28005","location":{"type":"Point","coordinates":[-3.7135694766,40.4116052987]},"place":"mexican"},{"name":"La Mordida De Segovia","CP":"28005","location":{"type":"Point","coordinates":[-3.7111119473,40.4137662463]},"place":"mexican"},{"name":"La Panza Es Primero","CP":"28004","location":{"type":"Point","coordinates":[-3.7021098328,40.4210169987]},"place":"mexican"},{"name":"Tako Away","CP":null,"location":{"type":"Point","coordinates":[-3.7002825892,40.4162223414]},"place":"mexican"},{"name":"La Lupita","CP":"28004","location":{"type":"Point","coordinates":[-3.6940797838,40.4231004813]},"place":"mexican"},{"name":"El Rey De Los Tacos","CP":"28013","location":{"type":"Point","coordinates":[-3.709643,40.41938]},"place":"mexican"},{"name":"Mar\u00eda Bonita Taco Bar","CP":"28004","location":{"type":"Point","coordinates":[-3.7123493398,40.4261335167]},"place":"mexican"},{"name":"Barriga Llena","CP":"28004","location":{"type":"Point","coordinates":[-3.6972527699,40.4221461732]},"place":"mexican"},{"name":"La Catrina","CP":"28004","location":{"type":"Point","coordinates":[-3.7019334951,40.4252306188]},"place":"mexican"},{"name":"La jalape\u00f1a","CP":"28012","location":{"type":"Point","coordinates":[-3.697811,40.407829]},"place":"mexican"},{"name":"Mar\u00eda Bonita Lavapies","CP":"28013","location":{"type":"Point","coordinates":[-3.7005062952,40.411563915]},"place":"mexican"},{"name":"Las Ma\u00f1anitas","CP":"28004","location":{"type":"Point","coordinates":[-3.7013958985,40.4265665628]},"place":"mexican"},{"name":"Santita","CP":"28004","location":{"type":"Point","coordinates":[-3.700801,40.425326]},"place":"mexican"},{"name":"La Mordida","CP":"28004","location":{"type":"Point","coordinates":[-3.6958968441,40.4243612011]},"place":"mexican"},{"name":"La Venganza de Malinche","CP":"28015","location":{"type":"Point","coordinates":[-3.712051275,40.4249911167]},"place":"mexican"},{"name":"Mestizo","CP":"28001","location":{"type":"Point","coordinates":[-3.6899437827,40.4218651555]},"place":"mexican"},{"name":"El K\u00e1rtel de Malasa\u00f1a","CP":"28004","location":{"type":"Point","coordinates":[-3.7021427135,40.425621082]},"place":"mexican"},{"name":"La Mordida de Princesa","CP":"28008","location":{"type":"Point","coordinates":[-3.7126450769,40.4243147783]},"place":"mexican"},{"name":"Barriga Bar","CP":"28004","location":{"type":"Point","coordinates":[-3.695529,40.42256]},"place":"mexican"},{"name":"Comala","CP":null,"location":{"type":"Point","coordinates":[-3.6924788352,40.4160205506]},"place":"mexican"},{"name":"La Panza es Primero","CP":"28004","location":{"type":"Point","coordinates":[-3.6971297235,40.4222819518]},"place":"mexican"},{"name":"Colorado Bar","CP":"28008","location":{"type":"Point","coordinates":[-3.7131852166,40.4240554596]},"place":"mexican"},{"name":"Tako Away","CP":"28012","location":{"type":"Point","coordinates":[-3.7028722571,40.4147108908]},"place":"mexican"},{"name":"Santita Carb\u00f3n Mexicano","CP":"28013","location":{"type":"Point","coordinates":[-3.699612,40.418822]},"place":"mexican"},{"name":"Tierra Burrito Bar","CP":"28004","location":{"type":"Point","coordinates":[-3.697085,40.427748]},"place":"mexican"},{"name":"Tako-Away","CP":"28004","location":{"type":"Point","coordinates":[-3.7007082705,40.4208136734]},"place":"mexican"},{"name":"Restaurante Alamillo","CP":"28029","location":{"type":"Point","coordinates":[-3.7104284636,40.4140302208]},"place":"mexican"},{"name":"Los Tacotes de La Panza","CP":null,"location":{"type":"Point","coordinates":[-3.696356,40.425472]},"place":"mexican"},{"name":"Mawey Taco Bar","CP":"28013","location":{"type":"Point","coordinates":[-3.708341,40.421124]},"place":"mexican"},{"name":"La Esquina Mexicana","CP":"28005","location":{"type":"Point","coordinates":[-3.710597,40.413147]},"place":"mexican"},{"name":"Antigua Taquer\u00eda","CP":"28012","location":{"type":"Point","coordinates":[-3.7041266704,40.4094648043]},"place":"mexican"},{"name":"La Rancherita","CP":null,"location":{"type":"Point","coordinates":[-3.699275,40.4227957571]},"place":"mexican"},{"name":"La Taquer\u00eda de Birra","CP":"28015","location":{"type":"Point","coordinates":[-3.708743273,40.427232746]},"place":"mexican"},{"name":"Slow Mex","CP":"28004","location":{"type":"Point","coordinates":[-3.70423716,40.4258800318]},"place":"mexican"},{"name":"Me Gustas MXO","CP":"28005","location":{"type":"Point","coordinates":[-3.7125279165,40.4142233286]},"place":"mexican"},{"name":"Gracias Padre","CP":"28004","location":{"type":"Point","coordinates":[-3.697308,40.42218]},"place":"mexican"},{"name":"Meridiano 100","CP":"28004","location":{"type":"Point","coordinates":[-3.7035888433,40.4273509187]},"place":"mexican"},{"name":"La Panza es Primero","CP":null,"location":{"type":"Point","coordinates":[-3.7019253283,40.426157145]},"place":"mexican"},{"name":"Takomama","CP":"28004","location":{"type":"Point","coordinates":[-3.700102,40.42172]},"place":"mexican"},{"name":"Tako-Away","CP":"28008","location":{"type":"Point","coordinates":[-3.7122565022,40.424975098]},"place":"mexican"},{"name":"Tierra","CP":"28013","location":{"type":"Point","coordinates":[-3.709468,40.418117]},"place":"mexican"},{"name":"La Botica","CP":null,"location":{"type":"Point","coordinates":[-3.701461,40.426156]},"place":"mexican"},{"name":"Take-Away Tex Mex","CP":null,"location":{"type":"Point","coordinates":[-3.7011709213,40.4263191223]},"place":"mexican"},{"name":"tako away","CP":"28012","location":{"type":"Point","coordinates":[-3.69343,40.40955]},"place":"mexican"},{"name":"Ricos Tacos","CP":"28009","location":{"type":"Point","coordinates":[-3.700971,40.423106]},"place":"mexican"},{"name":"La Chingona","CP":"28004","location":{"type":"Point","coordinates":[-3.694966,40.425345]},"place":"mexican"},{"name":"Tako-Away","CP":"28005","location":{"type":"Point","coordinates":[-3.708255,40.411374]},"place":"mexican"},{"name":"Taco Bell","CP":"28012","location":{"type":"Point","coordinates":[-3.6925325,40.408943]},"place":"mexican"},{"name":"La Mezcaleria","CP":null,"location":{"type":"Point","coordinates":[-3.703315,40.425708]},"place":"mexican"},{"name":"Tako Away","CP":"28004","location":{"type":"Point","coordinates":[-3.6965551,40.427803]},"place":"mexican"},{"name":"La Revancha","CP":"28004","location":{"type":"Point","coordinates":[-3.6981162055,40.4248102561]},"place":"mexican"},{"name":"Sakale","CP":"28004","location":{"type":"Point","coordinates":[-3.703782,40.423237]},"place":"mexican"},{"name":"Taquer\u00eda Mi Ciudad","CP":"28015","location":{"type":"Point","coordinates":[-3.710279,40.427651]},"place":"mexican"},{"name":"Tako-Away","CP":"28004","location":{"type":"Point","coordinates":[-3.7011609574,40.4263299019]},"place":"mexican"},{"name":"Steak Burger Bar","CP":"28012","location":{"type":"Point","coordinates":[-3.6936703797,40.4097979266]},"place":"mexican"},{"name":"OleMole","CP":"28010","location":{"type":"Point","coordinates":[-3.69503915,40.42745777]},"place":"mexican"}]