[{"name":"Palacio de Gaviria","CP":"28013","location":{"type":"Point","coordinates":[-3.7060442727,40.4171392966]},"place":"museum"},{"name":"Imprenta Municipal","CP":"28012","location":{"type":"Point","coordinates":[-3.7054478005,40.4136633212]},"place":"museum"},{"name":"Real Academia de Bellas Artes de San Fernando","CP":"28014","location":{"type":"Point","coordinates":[-3.7003524389,40.4175458721]},"place":"museum"},{"name":"Espacio Fundaci\u00f3n Telef\u00f3nica","CP":"28004","location":{"type":"Point","coordinates":[-3.7016173552,40.4203915625]},"place":"museum"},{"name":"Casa Museo Lope de Vega","CP":"28014","location":{"type":"Point","coordinates":[-3.6974677331,40.4143264895]},"place":"museum"},{"name":"Sala de Exposiciones Alcal\u00e1 31","CP":"28014","location":{"type":"Point","coordinates":[-3.6982584305,40.418294845]},"place":"museum"},{"name":"C\u00edrculo de Bellas Artes","CP":"28014","location":{"type":"Point","coordinates":[-3.6966117471,40.4184864796]},"place":"museum"},{"name":"Museo Thyssen-Bornemisza","CP":"28014","location":{"type":"Point","coordinates":[-3.6948908137,40.4163592861]},"place":"museum"},{"name":"Ateneo de Madrid","CP":"28014","location":{"type":"Point","coordinates":[-3.6982995289,40.4153525009]},"place":"museum"},{"name":"Palacio Real de Madrid","CP":"28013","location":{"type":"Point","coordinates":[-3.7142586708,40.4179397201]},"place":"museum"},{"name":"Santa Iglesia Catedral de Santa Mar\u00eda la Real de la Almudena (Catedral de la Almudena)","CP":"28013","location":{"type":"Point","coordinates":[-3.7145161629,40.4157669326]},"place":"museum"},{"name":"Museo Naval de Madrid","CP":"28014","location":{"type":"Point","coordinates":[-3.6932109104,40.4177206329]},"place":"museum"},{"name":"Museo Nacional del Prado","CP":"28014","location":{"type":"Point","coordinates":[-3.692189455,40.4139780061]},"place":"museum"},{"name":"Real Armeria","CP":null,"location":{"type":"Point","coordinates":[-3.7135474215,40.416516737]},"place":"museum"},{"name":"Fundaci\u00f3n Caja Madrid","CP":"28013","location":{"type":"Point","coordinates":[-3.7069712132,40.4181334172]},"place":"museum"},{"name":"Casita Museo de Rat\u00f3n P\u00e9rez","CP":"28013","location":{"type":"Point","coordinates":[-3.7054429714,40.4173382601]},"place":"museum"},{"name":"Museo de los Ca\u00f1os del Peral","CP":null,"location":{"type":"Point","coordinates":[-3.7094217701,40.4180739096]},"place":"museum"},{"name":"CaixaForum Madrid","CP":"28014","location":{"type":"Point","coordinates":[-3.6931765079,40.4110126943]},"place":"museum"},{"name":"Palacio de Linares - Casa de Am\u00e9rica","CP":"28014","location":{"type":"Point","coordinates":[-3.6918272478,40.4202537661]},"place":"museum"},{"name":"Museo del Romanticismo","CP":"28004","location":{"type":"Point","coordinates":[-3.6988496878,40.4258018826]},"place":"museum"},{"name":"Museo de Historia (Museo Municipal de Madrid)","CP":"28004","location":{"type":"Point","coordinates":[-3.7009721143,40.4256903383]},"place":"museum"},{"name":"Museo de San Isidro. Los or\u00edgenes de Madrid","CP":"28005","location":{"type":"Point","coordinates":[-3.7107437816,40.4122248231]},"place":"museum"},{"name":"Museo Nacional Centro de Arte Reina Sof\u00eda (MNCARS)","CP":"28012","location":{"type":"Point","coordinates":[-3.6938217695,40.4087365358]},"place":"museum"},{"name":"Museo Cerralbo","CP":"28008","location":{"type":"Point","coordinates":[-3.714705716,40.4238842197]},"place":"museum"},{"name":"Templo de Debod","CP":"28008","location":{"type":"Point","coordinates":[-3.7168433933,40.4241644119]},"place":"museum"},{"name":"Cas\u00f3n del Buen Retiro","CP":"28014","location":{"type":"Point","coordinates":[-3.6890566349,40.4152278091]},"place":"museum"},{"name":"Museo Nacional de Artes Decorativas","CP":"28014","location":{"type":"Point","coordinates":[-3.6897883707,40.418062324]},"place":"museum"},{"name":"Fundaci\u00f3n Mapfre B\u00e1rbara de Braganza","CP":null,"location":{"type":"Point","coordinates":[-3.6919827888,40.4233559161]},"place":"museum"},{"name":"Edificio Nouvel","CP":null,"location":{"type":"Point","coordinates":[-3.694678,40.407362]},"place":"museum"},{"name":"Museo Arqueol\u00f3gico Nacional (MAN)","CP":"28001","location":{"type":"Point","coordinates":[-3.6884316839,40.423259215]},"place":"museum"},{"name":"Museo ABC","CP":"28015","location":{"type":"Point","coordinates":[-3.7096638714,40.427839589]},"place":"museum"},{"name":"Real Observatorio de Madrid","CP":"28014","location":{"type":"Point","coordinates":[-3.6881681925,40.4093805341]},"place":"museum"},{"name":"La Casa Del Ratoncito Perez","CP":"28013","location":{"type":"Point","coordinates":[-3.7055522203,40.4169472714]},"place":"museum"},{"name":"Casa de M\u00e9xico en Espa\u00f1a","CP":"28015","location":{"type":"Point","coordinates":[-3.7095205486,40.4300866372]},"place":"museum"},{"name":"And\u00e9n Cero","CP":"28003","location":{"type":"Point","coordinates":[-3.6976789573,40.4323340274]},"place":"museum"},{"name":"Museo de arte contempor\u00e1neo","CP":null,"location":{"type":"Point","coordinates":[-3.7111635515,40.4268847314]},"place":"museum"},{"name":"Casa de Canarias","CP":"28014","location":{"type":"Point","coordinates":[-3.6966955662,40.417220911]},"place":"museum"},{"name":"Casa Sefarad Israel","CP":null,"location":{"type":"Point","coordinates":[-3.7111883312,40.4153561158]},"place":"museum"},{"name":"ExpoVida","CP":"28014","location":{"type":"Point","coordinates":[-3.6954456568,40.4168574193]},"place":"museum"},{"name":"Exposici\u00f3n Hopper","CP":null,"location":{"type":"Point","coordinates":[-3.694864176,40.4161533885]},"place":"museum"},{"name":"Museo de la Catedral de la Almudena","CP":"28013","location":{"type":"Point","coordinates":[-3.713479328,40.4156774056]},"place":"museum"},{"name":"Muralla \u0130slamica de Madrid","CP":null,"location":{"type":"Point","coordinates":[-3.714719,40.414745]},"place":"museum"},{"name":"Museo Nacional de Antropolog\u00eda","CP":"28014","location":{"type":"Point","coordinates":[-3.6888759855,40.4075292567]},"place":"museum"},{"name":"Fundacion COAM","CP":"28004","location":{"type":"Point","coordinates":[-3.6946430962,40.4231577494]},"place":"museum"},{"name":"La F\u00e1brica","CP":"28004","location":{"type":"Point","coordinates":[-3.6930186106,40.4262954441]},"place":"museum"},{"name":"Museo de Cera","CP":"28004","location":{"type":"Point","coordinates":[-3.6913515126,40.4249420077]},"place":"museum"},{"name":"Guernica by Pablo Picasso","CP":"28012","location":{"type":"Point","coordinates":[-3.694328,40.408134]},"place":"museum"},{"name":"Museo de Lou Ferrigno","CP":null,"location":{"type":"Point","coordinates":[-3.6965604609,40.4273565663]},"place":"museum"},{"name":"Museo de la Biblioteca Nacional de Espa\u00f1a","CP":null,"location":{"type":"Point","coordinates":[-3.690469,40.423297]},"place":"museum"},{"name":"Monumento Homenaje a las V\u00edctimas del 11-M","CP":"28005","location":{"type":"Point","coordinates":[-3.6889131367,40.4068708418]},"place":"museum"},{"name":"Museo del Robot","CP":null,"location":{"type":"Point","coordinates":[-3.7067914009,40.4294886229]},"place":"museum"},{"name":"Designing 007: 50 years of Bond style","CP":null,"location":{"type":"Point","coordinates":[-3.689533,40.425163]},"place":"museum"}]