[{"name":"Hammam Al \u00c1ndalus Madrid - Ba\u00f1os \u00c1rabes","CP":"28012","location":{"type":"Point","coordinates":[-3.7043183593,40.4144568817]},"place":"spa"},{"name":"Palacio Santa Ana","CP":null,"location":{"type":"Point","coordinates":[-3.7018745869,40.4143823905]},"place":"spa"},{"name":"LUSH","CP":"28013","location":{"type":"Point","coordinates":[-3.7048983744,40.4190121476]},"place":"spa"},{"name":"Masvitalzenter","CP":"28012","location":{"type":"Point","coordinates":[-3.7028778742,40.4147219861]},"place":"spa"},{"name":"Ba\u00f1os \u00c1rabes Medina Mayrit","CP":null,"location":{"type":"Point","coordinates":[-3.7043107142,40.4144670156]},"place":"spa"},{"name":"Lush Spa","CP":null,"location":{"type":"Point","coordinates":[-3.7093794394,40.4190328677]},"place":"spa"},{"name":"Val Souza Estilistas","CP":"28012","location":{"type":"Point","coordinates":[-3.705196,40.408897]},"place":"spa"},{"name":"FUSIOM -Body&Soul-","CP":"28014","location":{"type":"Point","coordinates":[-3.691470623,40.4197203733]},"place":"spa"},{"name":"M Thai","CP":"28003","location":{"type":"Point","coordinates":[-3.7030729797,40.4270147975]},"place":"spa"},{"name":"Senator Gran Via 70 Spa Hotel 4*","CP":"28013","location":{"type":"Point","coordinates":[-3.7095605605,40.4226208639]},"place":"spa"},{"name":"ME Madrid Reina Victoria","CP":"28012","location":{"type":"Point","coordinates":[-3.7014056,40.4145587]},"place":"spa"},{"name":"Hotel Catalonia Gran V\u00eda","CP":"28013","location":{"type":"Point","coordinates":[-3.6990638305,40.4195509754]},"place":"spa"},{"name":"Yanomeduele","CP":"28004","location":{"type":"Point","coordinates":[-3.6973792427,40.4205706648]},"place":"spa"},{"name":"Esenzias","CP":null,"location":{"type":"Point","coordinates":[-3.7029734,40.41454]},"place":"spa"},{"name":"Centro Sol","CP":null,"location":{"type":"Point","coordinates":[-3.7068223218,40.4161289352]},"place":"spa"},{"name":"Spaxi\u00f3n","CP":"28013","location":{"type":"Point","coordinates":[-3.7055522203,40.4197693814]},"place":"spa"},{"name":"Question To Me","CP":"28013","location":{"type":"Point","coordinates":[-3.7048252828,40.4196217993]},"place":"spa"},{"name":"VietNails","CP":"28012","location":{"type":"Point","coordinates":[-3.7077539698,40.4114224338]},"place":"spa"},{"name":"Yves Rocher","CP":"28013","location":{"type":"Point","coordinates":[-3.703069267,40.4201256276]},"place":"spa"},{"name":"Physios","CP":"28004","location":{"type":"Point","coordinates":[-3.7021593835,40.421016128]},"place":"spa"},{"name":"Madrid Day Spa by Nuilea","CP":"28014","location":{"type":"Point","coordinates":[-3.6986160278,40.4145579829]},"place":"spa"},{"name":"Radisson Blu Hotel, Madrid Prado","CP":"28014","location":{"type":"Point","coordinates":[-3.6940706978,40.412510389]},"place":"spa"},{"name":"Centro Deportivo Municipal Escuelas P\u00edas","CP":null,"location":{"type":"Point","coordinates":[-3.6992174595,40.4239389154]},"place":"spa"},{"name":"MASSALMA Transformaci\u00f3n Personal","CP":"28004","location":{"type":"Point","coordinates":[-3.699831,40.4207119]},"place":"spa"},{"name":"Urso hotel & spa","CP":"28004","location":{"type":"Point","coordinates":[-3.6981689054,40.4268251487]},"place":"spa"},{"name":"Kwantida Charoensin","CP":"28013","location":{"type":"Point","coordinates":[-3.7077168,40.4207841]},"place":"spa"},{"name":"Cl\u00ednicasDH - Depilhair","CP":"28013","location":{"type":"Point","coordinates":[-3.709076643,40.4221380655]},"place":"spa"},{"name":"AC Palacio Del Retiro, Autograph Collection\u00ae","CP":"28014","location":{"type":"Point","coordinates":[-3.6892269628,40.4177785479]},"place":"spa"},{"name":"ZENEDHU WELLNESS","CP":"28005","location":{"type":"Point","coordinates":[-3.7117159367,40.4133735179]},"place":"spa"},{"name":"CHS Villalba","CP":"28008","location":{"type":"Point","coordinates":[-3.7121175,40.42249]},"place":"spa"},{"name":"Wellness Boutique Experience Madrid","CP":"28004","location":{"type":"Point","coordinates":[-3.6961004,40.4257967]},"place":"spa"},{"name":"Global L\u00e1ser","CP":"28004","location":{"type":"Point","coordinates":[-3.7035727501,40.4276265577]},"place":"spa"},{"name":"Teen Madrid","CP":"28004","location":{"type":"Point","coordinates":[-3.700058,40.426645875]},"place":"spa"},{"name":"Estetica Benissa","CP":"28004","location":{"type":"Point","coordinates":[-3.6988735199,40.4279205714]},"place":"spa"},{"name":"masajesennthai","CP":"28004","location":{"type":"Point","coordinates":[-3.6949318,40.4274223]},"place":"spa"}]