[{"name":"Musashi","CP":"28013","location":{"type":"Point","coordinates":[-3.7076562434,40.4190004801]},"place":"sushi"},{"name":"19 Sushi Bar","CP":"28013","location":{"type":"Point","coordinates":[-3.7031344458,40.4197802738]},"place":"sushi"},{"name":"Yoka Loka","CP":"28012","location":{"type":"Point","coordinates":[-3.6986928116,40.411614585]},"place":"sushi"},{"name":"Umiko","CP":null,"location":{"type":"Point","coordinates":[-3.6973123469,40.4175938862]},"place":"sushi"},{"name":"Donzoko","CP":"28014","location":{"type":"Point","coordinates":[-3.6995386538,40.4161349495]},"place":"sushi"},{"name":"Ramen Kagura","CP":"28013","location":{"type":"Point","coordinates":[-3.7086242882,40.416849981]},"place":"sushi"},{"name":"Chic Sushi","CP":"28013","location":{"type":"Point","coordinates":[-3.7005835,40.419426]},"place":"sushi"},{"name":"Izakaya Han","CP":"28004","location":{"type":"Point","coordinates":[-3.698475072,40.4218188867]},"place":"sushi"},{"name":"Wasabi & Roll","CP":"28013","location":{"type":"Point","coordinates":[-3.7095988203,40.4222665103]},"place":"sushi"},{"name":"Hattori Hanz\u014d","CP":"28004","location":{"type":"Point","coordinates":[-3.703874683,40.4208489352]},"place":"sushi"},{"name":"Janatomo","CP":"28004","location":{"type":"Point","coordinates":[-3.6991027738,40.4200367095]},"place":"sushi"},{"name":"Nippon 2","CP":"28004","location":{"type":"Point","coordinates":[-3.6985734032,40.4199146402]},"place":"sushi"},{"name":"Miyama","CP":"28013","location":{"type":"Point","coordinates":[-3.7097515208,40.4223528526]},"place":"sushi"},{"name":"Spott","CP":"28013","location":{"type":"Point","coordinates":[-3.6996235736,40.4187206298]},"place":"sushi"},{"name":"Sr. Ito","CP":null,"location":{"type":"Point","coordinates":[-3.6974641026,40.4241941825]},"place":"sushi"},{"name":"Oishii Sushi & Ramen","CP":"28004","location":{"type":"Point","coordinates":[-3.7056499371,40.4208773322]},"place":"sushi"},{"name":"Mashita","CP":"28013","location":{"type":"Point","coordinates":[-3.7095981173,40.4205228579]},"place":"sushi"},{"name":"MACAO","CP":"28012","location":{"type":"Point","coordinates":[-3.700393,40.415429]},"place":"sushi"},{"name":"Sumo Fusi\u00f3n","CP":"28004","location":{"type":"Point","coordinates":[-3.6981858863,40.4193033833]},"place":"sushi"},{"name":"Doki Doki","CP":"28001","location":{"type":"Point","coordinates":[-3.6897974462,40.421168589]},"place":"sushi"},{"name":"Washoku Sushi","CP":"28012","location":{"type":"Point","coordinates":[-3.7033925316,40.4075037631]},"place":"sushi"},{"name":"Miss Sushi","CP":"28004","location":{"type":"Point","coordinates":[-3.697417601,40.4255076221]},"place":"sushi"},{"name":"Nihon Ryoori","CP":"28013","location":{"type":"Point","coordinates":[-3.711582157,40.4159925789]},"place":"sushi"},{"name":"Miss Sushi","CP":"28014","location":{"type":"Point","coordinates":[-3.700117,40.414505]},"place":"sushi"},{"name":"Sushi Store Express","CP":"28013","location":{"type":"Point","coordinates":[-3.6980874925,40.4193123146]},"place":"sushi"},{"name":"Restaurante Sakura","CP":"28013","location":{"type":"Point","coordinates":[-3.7056825629,40.4158059723]},"place":"sushi"},{"name":"Banzai","CP":"28001","location":{"type":"Point","coordinates":[-3.6902455898,40.4219203855]},"place":"sushi"},{"name":"Nigiri","CP":null,"location":{"type":"Point","coordinates":[-3.7015283945,40.4267022787]},"place":"sushi"},{"name":"Sake Dining Himawari","CP":"28004","location":{"type":"Point","coordinates":[-3.6932518381,40.4227253798]},"place":"sushi"},{"name":"Gourmet Experience","CP":"28013","location":{"type":"Point","coordinates":[-3.7054582485,40.4196666097]},"place":"sushi"},{"name":"Go Sushing","CP":"28004","location":{"type":"Point","coordinates":[-3.704728,40.420939]},"place":"sushi"},{"name":"Sushi Bar","CP":"28005","location":{"type":"Point","coordinates":[-3.7086498907,40.4160647659]},"place":"sushi"},{"name":"El Jard\u00edn Secreto de SB","CP":"28013","location":{"type":"Point","coordinates":[-3.7023069232,40.4191067107]},"place":"sushi"},{"name":"UDON","CP":"28004","location":{"type":"Point","coordinates":[-3.6994906123,40.4201513928]},"place":"sushi"},{"name":"Ginza","CP":"28014","location":{"type":"Point","coordinates":[-3.6959859447,40.415967333]},"place":"sushi"},{"name":"Itamae Sushi","CP":null,"location":{"type":"Point","coordinates":[-3.7009206304,40.418451172]},"place":"sushi"},{"name":"Ikigai","CP":"28013","location":{"type":"Point","coordinates":[-3.70979,40.422222]},"place":"sushi"},{"name":"Yoshi Sushi & Japanese Grill","CP":"28004","location":{"type":"Point","coordinates":[-3.6968941491,40.4227829481]},"place":"sushi"},{"name":"Sushimarket","CP":"28005","location":{"type":"Point","coordinates":[-3.708720325,40.4154365874]},"place":"sushi"},{"name":"Okasan","CP":"28013","location":{"type":"Point","coordinates":[-3.7053404,40.419765]},"place":"sushi"},{"name":"Sushiitto","CP":null,"location":{"type":"Point","coordinates":[-3.6902349338,40.4219686067]},"place":"sushi"},{"name":"Su & Si","CP":"28012","location":{"type":"Point","coordinates":[-3.6959147667,40.4072495667]},"place":"sushi"},{"name":"Kimono","CP":"28004","location":{"type":"Point","coordinates":[-3.7020551949,40.4245777776]},"place":"sushi"},{"name":"Sumosan","CP":null,"location":{"type":"Point","coordinates":[-3.7131726421,40.4240360028]},"place":"sushi"},{"name":"Lobby Market","CP":"28013","location":{"type":"Point","coordinates":[-3.6985626,40.4195785]},"place":"sushi"},{"name":"Sushi Bao","CP":null,"location":{"type":"Point","coordinates":[-3.7073525662,40.4245897292]},"place":"sushi"},{"name":"Nipponsei\u00a0Sushi and Club Experience","CP":null,"location":{"type":"Point","coordinates":[-3.7078769503,40.4198436821]},"place":"sushi"},{"name":"Comida Japonesa","CP":"28004","location":{"type":"Point","coordinates":[-3.6975860596,40.4218930331]},"place":"sushi"},{"name":"Sushi Shop","CP":"28001","location":{"type":"Point","coordinates":[-3.6888131374,40.4208933263]},"place":"sushi"},{"name":"L.a. Sushi","CP":"28004","location":{"type":"Point","coordinates":[-3.704082,40.425465]},"place":"sushi"},{"name":"SUSHIYA","CP":"28008","location":{"type":"Point","coordinates":[-3.7150293432,40.4216804786]},"place":"sushi"},{"name":"Ke Wok","CP":"28004","location":{"type":"Point","coordinates":[-3.706067289,40.4214600304]},"place":"sushi"},{"name":"Sushi Shop","CP":"28004","location":{"type":"Point","coordinates":[-3.6927541,40.4263552]},"place":"sushi"},{"name":"Jinode","CP":"28012","location":{"type":"Point","coordinates":[-3.6948441184,40.4103227098]},"place":"sushi"},{"name":"Orient Buffet Libre","CP":"28013","location":{"type":"Point","coordinates":[-3.7110660149,40.4222369796]},"place":"sushi"},{"name":"Sakale","CP":"28004","location":{"type":"Point","coordinates":[-3.703782,40.423237]},"place":"sushi"}]