[{"name":"Chocolater\u00eda San Gin\u00e9s","CP":"28013","location":{"type":"Point","coordinates":[-3.7070788402,40.416754337]},"place":"sweets"},{"name":"Caf\u00e9 de la Luz","CP":"28004","location":{"type":"Point","coordinates":[-3.7025909846,40.4221227917]},"place":"sweets"},{"name":"La Violeta","CP":"28012","location":{"type":"Point","coordinates":[-3.700671,40.416477]},"place":"sweets"},{"name":"La Cure Gourmande","CP":"28012","location":{"type":"Point","coordinates":[-3.706103152,40.415845206]},"place":"sweets"},{"name":"Celicioso","CP":"28004","location":{"type":"Point","coordinates":[-3.7010269929,40.4203533209]},"place":"sweets"},{"name":"Creperie Ma Bretagne","CP":"28004","location":{"type":"Point","coordinates":[-3.702152987,40.4256169136]},"place":"sweets"},{"name":"El Horno de San Onofre","CP":"28004","location":{"type":"Point","coordinates":[-3.7014679427,40.421428238]},"place":"sweets"},{"name":"La Encomienda","CP":"28012","location":{"type":"Point","coordinates":[-3.7059818747,40.4106719712]},"place":"sweets"},{"name":"La Hummuseria","CP":"28004","location":{"type":"Point","coordinates":[-3.7000365087,40.4234749387]},"place":"sweets"},{"name":"Chocolat","CP":"28014","location":{"type":"Point","coordinates":[-3.6970645388,40.4128908681]},"place":"sweets"},{"name":"celicioso","CP":"28004","location":{"type":"Point","coordinates":[-3.6957259174,40.4221118728]},"place":"sweets"},{"name":"Oomuombo","CP":"28013","location":{"type":"Point","coordinates":[-3.7051782508,40.4191335015]},"place":"sweets"},{"name":"La Duquesita","CP":"28004","location":{"type":"Point","coordinates":[-3.696688,40.42551]},"place":"sweets"},{"name":"Taj Mahal","CP":"28004","location":{"type":"Point","coordinates":[-3.6963255127,40.4242295054]},"place":"sweets"},{"name":"Mallorca","CP":"28001","location":{"type":"Point","coordinates":[-3.6884351369,40.4212047958]},"place":"sweets"},{"name":"Mam\u00e1 Framboise","CP":"28004","location":{"type":"Point","coordinates":[-3.6956153896,40.4247518752]},"place":"sweets"},{"name":"QVADRA PANIS","CP":null,"location":{"type":"Point","coordinates":[-3.7118073341,40.4174528545]},"place":"sweets"},{"name":"La Quietud Tiyoweh","CP":"28014","location":{"type":"Point","coordinates":[-3.6949271742,40.4111531739]},"place":"sweets"},{"name":"Mughul","CP":"28015","location":{"type":"Point","coordinates":[-3.7102673422,40.4251758684]},"place":"sweets"},{"name":"Pans&Company","CP":"28013","location":{"type":"Point","coordinates":[-3.7056911238,40.4200136779]},"place":"sweets"}]